{
  "India": {
    "states": [
      {
        "state": "Andhra Pradesh",
        "reported": 120,
        "active": 10,
        "recovered": 105,
        "deaths": 5,
        "locations": [
          {
            "place": "Visakhapatnam",
            "latitude": 17.6868,
            "longitude": 83.2185
          },
          {
            "place": "Vijayawada",
            "latitude": 16.5062,
            "longitude": 80.648
          },
          {
            "place": "Guntur",
            "latitude": 16.3067,
            "longitude": 80.4365
          },
          {
            "place": "Nellore",
            "latitude": 14.4426,
            "longitude": 79.9865
          },
          {
            "place": "Kurnool",
            "latitude": 15.8281,
            "longitude": 78.0373
          },
          {
            "place": "Rajahmundry",
            "latitude": 17.0005,
            "longitude": 81.804
          },
          {
            "place": "Tirupati",
            "latitude": 13.6288,
            "longitude": 79.4192
          },
          {
            "place": "Kadapa",
            "latitude": 14.4775,
            "longitude": 78.8231
          },
          {
            "place": "Anantapur",
            "latitude": 14.6819,
            "longitude": 77.6006
          },
          {
            "place": "Eluru",
            "latitude": 16.7107,
            "longitude": 81.0952
          }
        ]
      },
      {
        "state": "Arunachal Pradesh",
        "reported": 60,
        "active": 3,
        "recovered": 56,
        "deaths": 1,
        "locations": [
          {
            "place": "Itanagar",
            "latitude": 27.0844,
            "longitude": 93.6053
          },
          {
            "place": "Tawang",
            "latitude": 27.5861,
            "longitude": 91.865
          },
          {
            "place": "Ziro",
            "latitude": 27.6031,
            "longitude": 93.833
          },
          {
            "place": "Bomdila",
            "latitude": 27.2645,
            "longitude": 92.4193
          },
          {
            "place": "Pasighat",
            "latitude": 28.0667,
            "longitude": 95.3333
          },
          {
            "place": "Roing",
            "latitude": 28.1167,
            "longitude": 95.4167
          },
          {
            "place": "Tezu",
            "latitude": 27.9167,
            "longitude": 96.1667
          },
          {
            "place": "Daporijo",
            "latitude": 27.9864,
            "longitude": 94.222
          },
          {
            "place": "Aalo",
            "latitude": 28.1667,
            "longitude": 94.8
          },
          {
            "place": "Khonsa",
            "latitude": 27.0,
            "longitude": 95.5667
          }
        ]
      },
      {
        "state": "Assam",
        "reported": 200,
        "active": 15,
        "recovered": 180,
        "deaths": 5,
        "locations": [
          {
            "place": "Guwahati",
            "latitude": 26.1445,
            "longitude": 91.7362
          },
          {
            "place": "Silchar",
            "latitude": 24.8333,
            "longitude": 92.7789
          },
          {
            "place": "Dibrugarh",
            "latitude": 27.4728,
            "longitude": 94.911
          },
          {
            "place": "Jorhat",
            "latitude": 26.75,
            "longitude": 94.2167
          },
          {
            "place": "Nagaon",
            "latitude": 26.35,
            "longitude": 92.6833
          },
          {
            "place": "Tinsukia",
            "latitude": 27.5,
            "longitude": 95.3667
          },
          {
            "place": "Tezpur",
            "latitude": 26.6333,
            "longitude": 92.8
          },
          {
            "place": "Karimganj",
            "latitude": 24.8667,
            "longitude": 92.35
          },
          {
            "place": "Diphu",
            "latitude": 25.84,
            "longitude": 93.43
          },
          {
            "place": "Barpeta",
            "latitude": 26.3167,
            "longitude": 91.0
          }
        ]
      },
      {
        "state": "Bihar",
        "reported": 180,
        "active": 10,
        "recovered": 165,
        "deaths": 5,
        "locations": [
          {
            "place": "Patna",
            "latitude": 25.5941,
            "longitude": 85.1376
          },
          {
            "place": "Gaya",
            "latitude": 24.7955,
            "longitude": 85.0002
          },
          {
            "place": "Bhagalpur",
            "latitude": 25.25,
            "longitude": 87.0167
          },
          {
            "place": "Muzaffarpur",
            "latitude": 26.1225,
            "longitude": 85.3906
          },
          {
            "place": "Purnia",
            "latitude": 25.7771,
            "longitude": 87.4753
          }
        ]
      },
      {
        "state": "Chhattisgarh",
        "reported": 150,
        "active": 8,
        "recovered": 137,
        "deaths": 5,
        "locations": [
          {
            "place": "Raipur",
            "latitude": 21.2514,
            "longitude": 81.6296
          },
          {
            "place": "Bhilai",
            "latitude": 21.1938,
            "longitude": 81.3509
          },
          {
            "place": "Bilaspur",
            "latitude": 22.0796,
            "longitude": 82.1396
          },
          {
            "place": "Korba",
            "latitude": 22.345,
            "longitude": 82.6966
          },
          {
            "place": "Durg",
            "latitude": 21.1905,
            "longitude": 81.2849
          }
        ]
      },
      {
        "state": "Goa",
        "reported": 90,
        "active": 5,
        "recovered": 83,
        "deaths": 2,
        "locations": [
          {
            "place": "Panaji",
            "latitude": 15.4909,
            "longitude": 73.8278
          },
          {
            "place": "Margao",
            "latitude": 15.275,
            "longitude": 73.9581
          },
          {
            "place": "Vasco da Gama",
            "latitude": 15.3996,
            "longitude": 73.815
          },
          {
            "place": "Mapusa",
            "latitude": 15.5916,
            "longitude": 73.8081
          },
          {
            "place": "Ponda",
            "latitude": 15.402,
            "longitude": 74.017
          }
        ]
      },
      {
        "state": "Gujarat",
        "reported": 250,
        "active": 20,
        "recovered": 225,
        "deaths": 5,
        "locations": [
          {
            "place": "Ahmedabad",
            "latitude": 23.0225,
            "longitude": 72.5714
          },
          {
            "place": "Surat",
            "latitude": 21.1702,
            "longitude": 72.8311
          },
          {
            "place": "Vadodara",
            "latitude": 22.3072,
            "longitude": 73.1812
          },
          {
            "place": "Rajkot",
            "latitude": 22.3039,
            "longitude": 70.8022
          },
          {
            "place": "Bhavnagar",
            "latitude": 21.7645,
            "longitude": 72.1519
          }
        ]
      },
      {
        "state": "Haryana",
        "reported": 220,
        "active": 12,
        "recovered": 202,
        "deaths": 6,
        "locations": [
          {
            "place": "Faridabad",
            "latitude": 28.4089,
            "longitude": 77.3178
          },
          {
            "place": "Gurgaon",
            "latitude": 28.4595,
            "longitude": 77.0266
          },
          {
            "place": "Panipat",
            "latitude": 29.3909,
            "longitude": 76.9635
          },
          {
            "place": "Ambala",
            "latitude": 30.3782,
            "longitude": 76.7767
          },
          {
            "place": "Hisar",
            "latitude": 29.1492,
            "longitude": 75.7217
          }
        ]
      },
      {
        "state": "Himachal Pradesh",
        "reported": 130,
        "active": 9,
        "recovered": 117,
        "deaths": 4,
        "locations": [
          {
            "place": "Shimla",
            "latitude": 31.1048,
            "longitude": 77.1734
          },
          {
            "place": "Dharamshala",
            "latitude": 32.219,
            "longitude": 76.3234
          },
          {
            "place": "Solan",
            "latitude": 30.9089,
            "longitude": 77.0963
          },
          {
            "place": "Mandi",
            "latitude": 31.5892,
            "longitude": 76.9182
          },
          {
            "place": "Kullu",
            "latitude": 31.9579,
            "longitude": 77.1095
          }
        ]
      },
      {
        "state": "Jharkhand",
        "reported": 140,
        "active": 7,
        "recovered": 130,
        "deaths": 3,
        "locations": [
          {
            "place": "Ranchi",
            "latitude": 23.3441,
            "longitude": 85.3096
          },
          {
            "place": "Jamshedpur",
            "latitude": 22.8046,
            "longitude": 86.2029
          },
          {
            "place": "Dhanbad",
            "latitude": 23.7957,
            "longitude": 86.4304
          },
          {
            "place": "Bokaro",
            "latitude": 23.6693,
            "longitude": 86.1511
          },
          {
            "place": "Hazaribagh",
            "latitude": 23.9954,
            "longitude": 85.369
          }
        ]
      },
      {
        "state": "Karnataka",
        "reported": 300,
        "active": 18,
        "recovered": 275,
        "deaths": 7,
        "locations": [
          {
            "place": "Bangalore",
            "latitude": 12.9716,
            "longitude": 77.5946
          },
          {
            "place": "Mysore",
            "latitude": 12.2958,
            "longitude": 76.6394
          },
          {
            "place": "Hubli",
            "latitude": 15.3647,
            "longitude": 75.124
          },
          {
            "place": "Mangalore",
            "latitude": 12.9141,
            "longitude": 74.856
          }
        ]
      },
      {
        "state": "Kerala",
        "reported": 310,
        "active": 20,
        "recovered": 280,
        "deaths": 10,
        "locations": [
          {
            "place": "Thiruvananthapuram",
            "latitude": 8.5241,
            "longitude": 76.9366
          },
          {
            "place": "Kochi",
            "latitude": 9.9312,
            "longitude": 76.2673
          },
          {
            "place": "Kozhikode",
            "latitude": 11.2588,
            "longitude": 75.7804
          },
          {
            "place": "Thrissur",
            "latitude": 10.5276,
            "longitude": 76.2144
          },
          {
            "place": "Kannur",
            "latitude": 11.8745,
            "longitude": 75.3704
          }
        ]
      },
      {
        "state": "Madhya Pradesh",
        "reported": 260,
        "active": 16,
        "recovered": 238,
        "deaths": 6,
        "locations": [
          {
            "place": "Bhopal",
            "latitude": 23.2599,
            "longitude": 77.4126
          },
          {
            "place": "Indore",
            "latitude": 22.7196,
            "longitude": 75.8577
          },
          {
            "place": "Gwalior",
            "latitude": 26.2183,
            "longitude": 78.1828
          },
          {
            "place": "Jabalpur",
            "latitude": 23.1815,
            "longitude": 79.9864
          },
          {
            "place": "Ujjain",
            "latitude": 23.1793,
            "longitude": 75.7849
          }
        ]
      },
      {
        "state": "Maharashtra",
        "reported": 480,
        "active": 30,
        "recovered": 440,
        "deaths": 10,
        "locations": [
          {
            "place": "Mumbai",
            "latitude": 19.076,
            "longitude": 72.8777
          },
          {
            "place": "Pune",
            "latitude": 18.5204,
            "longitude": 73.8567
          },
          {
            "place": "Nagpur",
            "latitude": 21.1458,
            "longitude": 79.0882
          },
          {
            "place": "Nashik",
            "latitude": 19.9975,
            "longitude": 73.7898
          },
          {
            "place": "Aurangabad",
            "latitude": 19.8762,
            "longitude": 75.3433
          }
        ]
      },
      {
        "state": "Manipur",
        "reported": 70,
        "active": 4,
        "recovered": 64,
        "deaths": 2,
        "locations": [
          {
            "place": "Imphal",
            "latitude": 24.817,
            "longitude": 93.9368
          },
          {
            "place": "Thoubal",
            "latitude": 24.638,
            "longitude": 94.02
          },
          {
            "place": "Bishnupur",
            "latitude": 24.63,
            "longitude": 93.75
          },
          {
            "place": "Churachandpur",
            "latitude": 24.3333,
            "longitude": 93.6667
          },
          {
            "place": "Ukhrul",
            "latitude": 25.1167,
            "longitude": 94.3667
          }
        ]
      },
      {
        "state": "Meghalaya",
        "reported": 65,
        "active": 3,
        "recovered": 60,
        "deaths": 2,
        "locations": [
          {
            "place": "Shillong",
            "latitude": 25.5788,
            "longitude": 91.8933
          },
          {
            "place": "Tura",
            "latitude": 25.5196,
            "longitude": 90.217
          },
          {
            "place": "Nongpoh",
            "latitude": 25.9,
            "longitude": 91.8833
          },
          {
            "place": "Jowai",
            "latitude": 25.45,
            "longitude": 92.2
          },
          {
            "place": "Baghmara",
            "latitude": 25.2167,
            "longitude": 90.6
          }
        ]
      },
      {
        "state": "Mizoram",
        "reported": 55,
        "active": 2,
        "recovered": 52,
        "deaths": 1,
        "locations": [
          {
            "place": "Aizawl",
            "latitude": 23.7271,
            "longitude": 92.7176
          },
          {
            "place": "Lunglei",
            "latitude": 22.88,
            "longitude": 92.73
          },
          {
            "place": "Champhai",
            "latitude": 23.47,
            "longitude": 93.33
          },
          {
            "place": "Serchhip",
            "latitude": 23.3,
            "longitude": 92.8333
          },
          {
            "place": "Kolasib",
            "latitude": 24.2,
            "longitude": 92.6833
          }
        ]
      },
      {
        "state": "Nagaland",
        "reported": 50,
        "active": 2,
        "recovered": 47,
        "deaths": 1,
        "locations": [
          {
            "place": "Kohima",
            "latitude": 25.6701,
            "longitude": 94.1077
          },
          {
            "place": "Dimapur",
            "latitude": 25.906,
            "longitude": 93.725
          },
          {
            "place": "Mokokchung",
            "latitude": 26.3246,
            "longitude": 94.5186
          },
          {
            "place": "Tuensang",
            "latitude": 26.27,
            "longitude": 94.83
          },
          {
            "place": "Wokha",
            "latitude": 26.1,
            "longitude": 94.2667
          }
        ]
      },
      {
        "state": "Odisha",
        "reported": 230,
        "active": 11,
        "recovered": 215,
        "deaths": 4,
        "locations": [
          {
            "place": "Bhubaneswar",
            "latitude": 20.2961,
            "longitude": 85.8245
          },
          {
            "place": "Cuttack",
            "latitude": 20.4625,
            "longitude": 85.8828
          },
          {
            "place": "Rourkela",
            "latitude": 22.2604,
            "longitude": 84.8536
          },
          {
            "place": "Berhampur",
            "latitude": 19.3149,
            "longitude": 84.7941
          },
          {
            "place": "Sambalpur",
            "latitude": 21.4669,
            "longitude": 83.9812
          }
        ]
      },
      {
        "state": "Punjab",
        "reported": 210,
        "active": 14,
        "recovered": 190,
        "deaths": 6,
        "locations": [
          {
            "place": "Ludhiana",
            "latitude": 30.9,
            "longitude": 75.85
          },
          {
            "place": "Amritsar",
            "latitude": 31.634,
            "longitude": 74.8723
          },
          {
            "place": "Jalandhar",
            "latitude": 31.326,
            "longitude": 75.5762
          },
          {
            "place": "Patiala",
            "latitude": 30.3398,
            "longitude": 76.3869
          },
          {
            "place": "Bathinda",
            "latitude": 30.211,
            "longitude": 74.9455
          }
        ]
      },
      {
        "state": "Rajasthan",
        "reported": 270,
        "active": 15,
        "recovered": 250,
        "deaths": 5,
        "locations": [
          {
            "place": "Jaipur",
            "latitude": 26.9124,
            "longitude": 75.7873
          },
          {
            "place": "Jodhpur",
            "latitude": 26.2389,
            "longitude": 73.0243
          },
          {
            "place": "Udaipur",
            "latitude": 24.5854,
            "longitude": 73.7125
          },
          {
            "place": "Kota",
            "latitude": 25.2138,
            "longitude": 75.8648
          },
          {
            "place": "Bikaner",
            "latitude": 28.0229,
            "longitude": 73.3119
          }
        ]
      },
      {
        "state": "Sikkim",
        "reported": 45,
        "active": 1,
        "recovered": 43,
        "deaths": 1,
        "locations": [
          {
            "place": "Gangtok",
            "latitude": 27.3389,
            "longitude": 88.6065
          },
          {
            "place": "Singtam",
            "latitude": 27.2266,
            "longitude": 88.5012
          },
          {
            "place": "Rangpo",
            "latitude": 27.1794,
            "longitude": 88.53
          },
          {
            "place": "Jorethang",
            "latitude": 27.195,
            "longitude": 88.325
          }
        ]
      },
      {
        "state": "Tamil Nadu",
        "reported": 350,
        "active": 22,
        "recovered": 320,
        "deaths": 8,
        "locations": [
          {
            "place": "Chennai",
            "latitude": 13.0827,
            "longitude": 80.2707
          },
          {
            "place": "Coimbatore",
            "latitude": 11.0168,
            "longitude": 76.9558
          },
          {
            "place": "Madurai",
            "latitude": 9.9252,
            "longitude": 78.1198
          },
          {
            "place": "Tiruchirappalli",
            "latitude": 10.7905,
            "longitude": 78.7047
          },
          {
            "place": "Salem",
            "latitude": 11.6643,
            "longitude": 78.146
          }
        ]
      },
      {
        "state": "Telangana",
        "reported": 240,
        "active": 14,
        "recovered": 220,
        "deaths": 6,
        "locations": [
          {
            "place": "Hyderabad",
            "latitude": 17.385,
            "longitude": 78.4867
          },
          {
            "place": "Warangal",
            "latitude": 17.9784,
            "longitude": 79.5941
          },
          {
            "place": "Nizamabad",
            "latitude": 18.6725,
            "longitude": 78.0941
          },
          {
            "place": "Karimnagar",
            "latitude": 18.4386,
            "longitude": 79.1288
          },
          {
            "place": "Khammam",
            "latitude": 17.2473,
            "longitude": 80.1514
          }
        ]
      },
      {
        "state": "Tripura",
        "reported": 75,
        "active": 3,
        "recovered": 70,
        "deaths": 2,
        "locations": [
          {
            "place": "Agartala",
            "latitude": 23.8315,
            "longitude": 91.2868
          },
          {
            "place": "Udaipur",
            "latitude": 23.5292,
            "longitude": 91.482
          },
          {
            "place": "Dharmanagar",
            "latitude": 24.3664,
            "longitude": 92.1703
          },
          {
            "place": "Ambassa",
            "latitude": 23.9245,
            "longitude": 91.8498
          },
          {
            "place": "Kailasahar",
            "latitude": 24.3234,
            "longitude": 92.0125
          }
        ]
      },
      {
        "state": "Uttar Pradesh",
        "reported": 290,
        "active": 17,
        "recovered": 265,
        "deaths": 8,
        "locations": [
          {
            "place": "Lucknow",
            "latitude": 26.8467,
            "longitude": 80.9462
          },
          {
            "place": "Kanpur",
            "latitude": 26.4499,
            "longitude": 80.3319
          },
          {
            "place": "Varanasi",
            "latitude": 25.3176,
            "longitude": 82.9739
          },
          {
            "place": "Agra",
            "latitude": 27.1767,
            "longitude": 78.0081
          },
          {
            "place": "Meerut",
            "latitude": 28.9845,
            "longitude": 77.7064
          }
        ]
      },
      {
        "state": "Uttarakhand",
        "reported": 160,
        "active": 9,
        "recovered": 145,
        "deaths": 6,
        "locations": [
          {
            "place": "Dehradun",
            "latitude": 30.3165,
            "longitude": 78.0322
          },
          {
            "place": "Haridwar",
            "latitude": 29.9457,
            "longitude": 78.1642
          },
          {
            "place": "Nainital",
            "latitude": 29.3919,
            "longitude": 79.4542
          },
          {
            "place": "Haldwani",
            "latitude": 29.2193,
            "longitude": 79.512
          },
          {
            "place": "Rudrapur",
            "latitude": 28.987,
            "longitude": 79.4144
          }
        ]
      },
      {
        "state": "West Bengal",
        "reported": 310,
        "active": 18,
        "recovered": 285,
        "deaths": 7,
        "locations": [
          {
            "place": "Kolkata",
            "latitude": 22.5726,
            "longitude": 88.3639
          },
          {
            "place": "Asansol",
            "latitude": 23.6739,
            "longitude": 86.9524
          },
          {
            "place": "Siliguri",
            "latitude": 26.7271,
            "longitude": 88.3953
          },
          {
            "place": "Durgapur",
            "latitude": 23.5204,
            "longitude": 87.3119
          },
          {
            "place": "Howrah",
            "latitude": 22.5958,
            "longitude": 88.2636
          }
        ]
      }
    ]
    }
}
